{
  "id": "8220848416",

  "address": [
    {
      "id": "1",
      "name": "soma",
      "phone": "8220848416",
      "pincode": "415501",
      "town": "koregaon",
      "state": "maharastra",
      "area": "asare",
      "lattitude": "17.709437181752232",
      "longitude": "74.17882162772321"
    },
    {
      "id": "2",
      "name": "subash",
      "phone": "6382835302",
      "pincode": "625501",
      "town": "alanganallur",
      "state": "tamilnadu",
      "area": "kallanai rd",
      "lattitude": "17.709455",
      "longitude": "74.178813"
    },
    {
      "id": "3",
      "name": "hemanth",
      "phone": "9585660890",
      "pincode": "629161",
      "town": "ayocode",
      "state": "tamilnadu",
      "area": "mekkin karai veedu",
      "lattitude": "13.0827",
      "longitude": "80.2707"
    },
     {
      "id": "4",
      "name": "soma",
      "phone": "8220848416",
      "pincode": "630709",
      "town": "ilayangudie",
      "state": "tamilnadu",
      "area": "colony",
      "lattitude": "13.0827",
      "longitude": "80.2707"
    }
  ]
}
